{
  "type": "FeatureCollection",
  "features": [
    {
      "type": "Feature",
      "properties": {
        "marker-color": "",
        "marker-size": "",
        "marker-symbol": "",
        "name": "手倉田諏訪",
        "標柱": "全線",
        "_markerType": "Icon",
        "_iconUrl": "https://maps.gsi.go.jp/portal/sys/v4/symbols/080.png",
        "_iconSize": "20,20",
        "_iconAnchor": "10,10"
      },
      "geometry": {
        "type": "Point",
        "coordinates": [
          140.87668240070343,
          38.170041969217046
        ]
      }
    },
    {
      "type": "Feature",
      "properties": {
        "name": "大手町四丁目(右)",
        "標柱": "右回り",
        "_markerType": "Icon",
        "_iconUrl": "https://maps.gsi.go.jp/portal/sys/v4/symbols/080.png",
        "_iconSize": [
          20,
          20
        ],
        "_iconAnchor": [
          10,
          10
        ]
      },
      "geometry": {
        "type": "Point",
        "coordinates": [
          140.87610840797424,
          38.16786997643997
        ]
      }
    },
    {
      "type": "Feature",
      "properties": {
        "name": "大手町四丁目(左)",
        "標柱": "左回り",
        "_markerType": "Icon",
        "_iconUrl": "https://maps.gsi.go.jp/portal/sys/v4/symbols/080.png",
        "_iconSize": [
          20,
          20
        ],
        "_iconAnchor": [
          10,
          10
        ]
      },
      "geometry": {
        "type": "Point",
        "coordinates": [
          140.8763176202774,
          38.16785310633986
        ]
      }
    },
    {
      "type": "Feature",
      "properties": {
        "name": "大手町六丁目(右)",
        "標柱": "右回り",
        "_markerType": "Icon",
        "_iconUrl": "https://maps.gsi.go.jp/portal/sys/v4/symbols/080.png",
        "_iconSize": [
          20,
          20
        ],
        "_iconAnchor": [
          10,
          10
        ]
      },
      "geometry": {
        "type": "Point",
        "coordinates": [
          140.87593138217926,
          38.17057757690527
        ]
      }
    },
    {
      "type": "Feature",
      "properties": {
        "name": "大手町六丁目(左)",
        "標柱": "左回り",
        "_markerType": "Icon",
        "_iconUrl": "https://maps.gsi.go.jp/portal/sys/v4/symbols/080.png",
        "_iconSize": [
          20,
          20
        ],
        "_iconAnchor": [
          10,
          10
        ]
      },
      "geometry": {
        "type": "Point",
        "coordinates": [
          140.87614595890045,
          38.1705986637416
        ]
      }
    },
    {
      "type": "Feature",
      "properties": {
        "name": "増田西公民館前(右)",
        "標柱": "右回り",
        "_markerType": "Icon",
        "_iconUrl": "https://maps.gsi.go.jp/portal/sys/v4/symbols/080.png",
        "_iconSize": [
          20,
          20
        ],
        "_iconAnchor": [
          10,
          10
        ]
      },
      "geometry": {
        "type": "Point",
        "coordinates": [
          140.87637662887573,
          38.173200732519476
        ]
      }
    },
    {
      "type": "Feature",
      "properties": {
        "name": "増田西公民館前(左)",
        "標柱": "左回り",
        "_markerType": "Icon",
        "_iconUrl": "https://maps.gsi.go.jp/portal/sys/v4/symbols/080.png",
        "_iconSize": [
          20,
          20
        ],
        "_iconAnchor": [
          10,
          10
        ]
      },
      "geometry": {
        "type": "Point",
        "coordinates": [
          140.8764785528183,
          38.17305312980679
        ]
      }
    },
    {
      "type": "Feature",
      "properties": {
        "name": "名取駅西口(降車専用)",
        "標柱": "降車専用",
        "_markerType": "Icon",
        "_iconUrl": "https://maps.gsi.go.jp/portal/sys/v4/symbols/080.png",
        "_iconSize": [
          20,
          20
        ],
        "_iconAnchor": [
          10,
          10
        ]
      },
      "geometry": {
        "type": "Point",
        "coordinates": [
          140.882079,
          38.173391
        ]
      }
    },
    {
      "type": "Feature",
      "properties": {
        "name": "名取駅西口(乗車専用)",
        "標柱": "乗車専用",
        "_markerType": "Icon",
        "_iconUrl": "https://maps.gsi.go.jp/portal/sys/v4/symbols/080.png",
        "_iconSize": [
          20,
          20
        ],
        "_iconAnchor": [
          10,
          10
        ]
      },
      "geometry": {
        "type": "Point",
        "coordinates": [
          140.882267,
          38.17299
        ]
      }
    },
    {
      "type": "Feature",
      "properties": {
        "name": "グリーンポート愛島(上)",
        "標柱": "上り",
        "_markerType": "Icon",
        "_iconUrl": "https://maps.gsi.go.jp/portal/sys/v4/symbols/080.png",
        "_iconSize": [
          20,
          20
        ],
        "_iconAnchor": [
          10,
          10
        ]
      },
      "geometry": {
        "type": "Point",
        "coordinates": [
          140.8183282613754,
          38.145527380516086
        ]
      }
    },
    {
      "type": "Feature",
      "properties": {
        "name": "西上平(上)",
        "標柱": "上り",
        "_markerType": "Icon",
        "_iconUrl": "https://maps.gsi.go.jp/portal/sys/v4/symbols/080.png",
        "_iconSize": [
          20,
          20
        ],
        "_iconAnchor": [
          10,
          10
        ]
      },
      "geometry": {
        "type": "Point",
        "coordinates": [
          140.8480417728424,
          38.14732351970904
        ]
      }
    },
    {
      "type": "Feature",
      "properties": {
        "name": "西上平(下)",
        "標柱": "下り",
        "_markerType": "Icon",
        "_iconUrl": "https://maps.gsi.go.jp/portal/sys/v4/symbols/080.png",
        "_iconSize": [
          20,
          20
        ],
        "_iconAnchor": [
          10,
          10
        ]
      },
      "geometry": {
        "type": "Point",
        "coordinates": [
          140.84819734096527,
          38.14726023898584
        ]
      }
    },
    {
      "type": "Feature",
      "properties": {
        "marker-color": "#000000",
        "marker-size": "",
        "marker-symbol": "",
        "name": "愛島小学校(上下)",
        "標柱": "乗降共通",
        "_markerType": "Icon",
        "_iconUrl": "https://maps.gsi.go.jp/portal/sys/v4/symbols/080.png",
        "_iconSize": "20,20",
        "_iconAnchor": "10,10"
      },
      "geometry": {
        "type": "Point",
        "coordinates": [
          140.84833145141602,
          38.15047904881714
        ]
      }
    },
    {
      "type": "Feature",
      "properties": {
        "name": "周防崎(上)",
        "標柱": "上り",
        "_markerType": "Icon",
        "_iconUrl": "https://maps.gsi.go.jp/portal/sys/v4/symbols/080.png",
        "_iconSize": [
          20,
          20
        ],
        "_iconAnchor": [
          10,
          10
        ]
      },
      "geometry": {
        "type": "Point",
        "coordinates": [
          140.86102098226547,
          38.14939698770408
        ]
      }
    },
    {
      "type": "Feature",
      "properties": {
        "name": "周防崎(下)",
        "標柱": "下り",
        "_markerType": "Icon",
        "_iconUrl": "https://maps.gsi.go.jp/portal/sys/v4/symbols/080.png",
        "_iconSize": [
          20,
          20
        ],
        "_iconAnchor": [
          10,
          10
        ]
      },
      "geometry": {
        "type": "Point",
        "coordinates": [
          140.86111754179,
          38.149331599481194
        ]
      }
    },
    {
      "type": "Feature",
      "properties": {
        "name": "小豆島(上)",
        "標柱": "上り",
        "_markerType": "Icon",
        "_iconUrl": "https://maps.gsi.go.jp/portal/sys/v4/symbols/080.png",
        "_iconSize": [
          20,
          20
        ],
        "_iconAnchor": [
          10,
          10
        ]
      },
      "geometry": {
        "type": "Point",
        "coordinates": [
          140.8634215593338,
          38.14951510821622
        ]
      }
    },
    {
      "type": "Feature",
      "properties": {
        "marker-color": "",
        "marker-size": "",
        "marker-symbol": "",
        "name": "小豆島(下)",
        "標柱": "下り",
        "_markerType": "Icon",
        "_iconUrl": "https://maps.gsi.go.jp/portal/sys/v4/symbols/080.png",
        "_iconSize": "[20,20]",
        "_iconAnchor": "[10,10]"
      },
      "geometry": {
        "type": "Point",
        "coordinates": [
          140.8635100722313,
          38.14946237586836
        ]
      }
    },
    {
      "type": "Feature",
      "properties": {
        "name": "松崎(下)",
        "標柱": "下り",
        "_markerType": "Icon",
        "_iconUrl": "https://maps.gsi.go.jp/portal/sys/v4/symbols/080.png",
        "_iconSize": [
          20,
          20
        ],
        "_iconAnchor": [
          10,
          10
        ]
      },
      "geometry": {
        "type": "Point",
        "coordinates": [
          140.86537420749664,
          38.15434312044546
        ]
      }
    },
    {
      "type": "Feature",
      "properties": {
        "name": "松崎(上)",
        "標柱": "上り",
        "_markerType": "Icon",
        "_iconUrl": "https://maps.gsi.go.jp/portal/sys/v4/symbols/080.png",
        "_iconSize": [
          20,
          20
        ],
        "_iconAnchor": [
          10,
          10
        ]
      },
      "geometry": {
        "type": "Point",
        "coordinates": [
          140.86513817310333,
          38.15425875425542
        ]
      }
    },
    {
      "type": "Feature",
      "properties": {
        "name": "松崎(愛の杜経由・下り)",
        "標柱": "下り",
        "_markerType": "Icon",
        "_iconUrl": "https://maps.gsi.go.jp/portal/sys/v4/symbols/080.png",
        "_iconSize": [
          20,
          20
        ],
        "_iconAnchor": [
          10,
          10
        ]
      },
      "geometry": {
        "type": "Point",
        "coordinates": [
          140.86456954479218,
          38.15383692184133
        ]
      }
    },
    {
      "type": "Feature",
      "properties": {
        "name": "松崎(愛の杜経由・上り)",
        "標柱": "上り",
        "_markerType": "Icon",
        "_iconUrl": "https://maps.gsi.go.jp/portal/sys/v4/symbols/080.png",
        "_iconSize": [
          20,
          20
        ],
        "_iconAnchor": [
          10,
          10
        ]
      },
      "geometry": {
        "type": "Point",
        "coordinates": [
          140.8643227815628,
          38.15375677340682
        ]
      }
    },
    {
      "type": "Feature",
      "properties": {
        "name": "名取が丘西口(上)",
        "標柱": "上り",
        "_markerType": "Icon",
        "_iconUrl": "https://maps.gsi.go.jp/portal/sys/v4/symbols/080.png",
        "_iconSize": [
          20,
          20
        ],
        "_iconAnchor": [
          10,
          10
        ]
      },
      "geometry": {
        "type": "Point",
        "coordinates": [
          140.86755752563474,
          38.15752365461298
        ]
      }
    },
    {
      "type": "Feature",
      "properties": {
        "name": "名取が丘西口(下)",
        "標柱": "下り",
        "_markerType": "Icon",
        "_iconUrl": "https://maps.gsi.go.jp/portal/sys/v4/symbols/080.png",
        "_iconSize": [
          20,
          20
        ],
        "_iconAnchor": [
          10,
          10
        ]
      },
      "geometry": {
        "type": "Point",
        "coordinates": [
          140.8675253391266,
          38.15727478492602
        ]
      }
    },
    {
      "type": "Feature",
      "properties": {
        "name": "箱塚(上)",
        "標柱": "上り",
        "_markerType": "Icon",
        "_iconUrl": "https://maps.gsi.go.jp/portal/sys/v4/symbols/080.png",
        "_iconSize": [
          20,
          20
        ],
        "_iconAnchor": [
          10,
          10
        ]
      },
      "geometry": {
        "type": "Point",
        "coordinates": [
          140.870481133461,
          38.15972548162315
        ]
      }
    },
    {
      "type": "Feature",
      "properties": {
        "name": "箱塚(下)",
        "標柱": "下り",
        "_markerType": "Icon",
        "_iconUrl": "https://maps.gsi.go.jp/portal/sys/v4/symbols/080.png",
        "_iconSize": [
          20,
          20
        ],
        "_iconAnchor": [
          10,
          10
        ]
      },
      "geometry": {
        "type": "Point",
        "coordinates": [
          140.87036848068237,
          38.15944287536208
        ]
      }
    },
    {
      "type": "Feature",
      "properties": {
        "name": "県立精神医療センター前(上)",
        "標柱": "上り",
        "_markerType": "Icon",
        "_iconUrl": "https://maps.gsi.go.jp/portal/sys/v4/symbols/080.png",
        "_iconSize": [
          20,
          20
        ],
        "_iconAnchor": [
          10,
          10
        ]
      },
      "geometry": {
        "type": "Point",
        "coordinates": [
          140.87456881999967,
          38.1626274049312
        ]
      }
    },
    {
      "type": "Feature",
      "properties": {
        "name": "県立精神医療センター前(下)",
        "標柱": "下り",
        "_markerType": "Icon",
        "_iconUrl": "https://maps.gsi.go.jp/portal/sys/v4/symbols/080.png",
        "_iconSize": [
          20,
          20
        ],
        "_iconAnchor": [
          10,
          10
        ]
      },
      "geometry": {
        "type": "Point",
        "coordinates": [
          140.87473511695862,
          38.16255570182254
        ]
      }
    },
    {
      "type": "Feature",
      "properties": {
        "name": "名取が丘入口(上)",
        "標柱": "上り",
        "_markerType": "Icon",
        "_iconUrl": "https://maps.gsi.go.jp/portal/sys/v4/symbols/080.png",
        "_iconSize": [
          20,
          20
        ],
        "_iconAnchor": [
          10,
          10
        ]
      },
      "geometry": {
        "type": "Point",
        "coordinates": [
          140.876339,
          38.164724
        ]
      }
    },
    {
      "type": "Feature",
      "properties": {
        "name": "名取が丘入口(下)",
        "標柱": "下り",
        "_markerType": "Icon",
        "_iconUrl": "https://maps.gsi.go.jp/portal/sys/v4/symbols/080.png",
        "_iconSize": [
          20,
          20
        ],
        "_iconAnchor": [
          10,
          10
        ]
      },
      "geometry": {
        "type": "Point",
        "coordinates": [
          140.876591,
          38.164783
        ]
      }
    },
    {
      "type": "Feature",
      "properties": {
        "name": "小山住宅前(上り)",
        "標柱": "上り",
        "_markerType": "Icon",
        "_iconUrl": "https://maps.gsi.go.jp/portal/sys/v4/symbols/080.png",
        "_iconSize": [
          20,
          20
        ],
        "_iconAnchor": [
          10,
          10
        ]
      },
      "geometry": {
        "type": "Point",
        "coordinates": [
          140.87762117385864,
          38.16530145874554
        ]
      }
    },
    {
      "type": "Feature",
      "properties": {
        "name": "小山住宅前(下り)",
        "標柱": "下り",
        "_markerType": "Icon",
        "_iconUrl": "https://maps.gsi.go.jp/portal/sys/v4/symbols/080.png",
        "_iconSize": [
          20,
          20
        ],
        "_iconAnchor": [
          10,
          10
        ]
      },
      "geometry": {
        "type": "Point",
        "coordinates": [
          140.8778464794159,
          38.16520866987731
        ]
      }
    },
    {
      "type": "Feature",
      "properties": {
        "name": "名取一中前(下)",
        "標柱": "下り",
        "_markerType": "Icon",
        "_iconUrl": "https://maps.gsi.go.jp/portal/sys/v4/symbols/080.png",
        "_iconSize": [
          20,
          20
        ],
        "_iconAnchor": [
          10,
          10
        ]
      },
      "geometry": {
        "type": "Point",
        "coordinates": [
          140.8807808160782,
          38.16528880572499
        ]
      }
    },
    {
      "type": "Feature",
      "properties": {
        "name": "名取一中前(上)",
        "標柱": "上り",
        "_markerType": "Icon",
        "_iconUrl": "https://maps.gsi.go.jp/portal/sys/v4/symbols/080.png",
        "_iconSize": [
          20,
          20
        ],
        "_iconAnchor": [
          10,
          10
        ]
      },
      "geometry": {
        "type": "Point",
        "coordinates": [
          140.8813226222992,
          38.16578648954357
        ]
      }
    },
    {
      "type": "Feature",
      "properties": {
        "name": "手倉田くじら保育園前(上)",
        "標柱": "上り",
        "_markerType": "Icon",
        "_iconUrl": "https://maps.gsi.go.jp/portal/sys/v4/symbols/080.png",
        "_iconSize": [
          20,
          20
        ],
        "_iconAnchor": [
          10,
          10
        ]
      },
      "geometry": {
        "type": "Point",
        "coordinates": [
          140.880861,
          38.167781
        ]
      }
    },
    {
      "type": "Feature",
      "properties": {
        "name": "手倉田くじら保育園前(下)",
        "標柱": "下り",
        "_markerType": "Icon",
        "_iconUrl": "https://maps.gsi.go.jp/portal/sys/v4/symbols/080.png",
        "_iconSize": [
          20,
          20
        ],
        "_iconAnchor": [
          10,
          10
        ]
      },
      "geometry": {
        "type": "Point",
        "coordinates": [
          140.881017,
          38.167718
        ]
      }
    },
    {
      "type": "Feature",
      "properties": {
        "name": "手倉田八幡(下)",
        "標柱": "下り",
        "_markerType": "Icon",
        "_iconUrl": "https://maps.gsi.go.jp/portal/sys/v4/symbols/080.png",
        "_iconSize": [
          20,
          20
        ],
        "_iconAnchor": [
          10,
          10
        ]
      },
      "geometry": {
        "type": "Point",
        "coordinates": [
          140.88020145893097,
          38.17099931247278
        ]
      }
    },
    {
      "type": "Feature",
      "properties": {
        "name": "手倉田八幡(上)",
        "標柱": "上り",
        "_markerType": "Icon",
        "_iconUrl": "https://maps.gsi.go.jp/portal/sys/v4/symbols/080.png",
        "_iconSize": [
          20,
          20
        ],
        "_iconAnchor": [
          10,
          10
        ]
      },
      "geometry": {
        "type": "Point",
        "coordinates": [
          140.88018,
          38.170653
        ]
      }
    },
    {
      "type": "Feature",
      "properties": {
        "name": "あいの杜公園前(愛の杜経由・上り)",
        "標柱": "上り",
        "_markerType": "Icon",
        "_iconUrl": "https://maps.gsi.go.jp/portal/sys/v4/symbols/080.png",
        "_iconSize": [
          20,
          20
        ],
        "_iconAnchor": [
          10,
          10
        ]
      },
      "geometry": {
        "type": "Point",
        "coordinates": [
          140.86149036884308,
          38.15479447790434
        ]
      }
    },
    {
      "type": "Feature",
      "properties": {
        "name": "あいの杜公園前(愛の杜経由・下り)",
        "標柱": "下り",
        "_markerType": "Icon",
        "_iconUrl": "https://maps.gsi.go.jp/portal/sys/v4/symbols/080.png",
        "_iconSize": [
          20,
          20
        ],
        "_iconAnchor": [
          10,
          10
        ]
      },
      "geometry": {
        "type": "Point",
        "coordinates": [
          140.8611363172531,
          38.154929462769935
        ]
      }
    },
    {
      "type": "Feature",
      "properties": {
        "name": "愛の郷公園入口(愛の杜経由・上り)",
        "標柱": "上り",
        "_markerType": "Icon",
        "_iconUrl": "https://maps.gsi.go.jp/portal/sys/v4/symbols/080.png",
        "_iconSize": [
          20,
          20
        ],
        "_iconAnchor": [
          10,
          10
        ]
      },
      "geometry": {
        "type": "Point",
        "coordinates": [
          140.85602402687073,
          38.15624977031306
        ]
      }
    },
    {
      "type": "Feature",
      "properties": {
        "name": "愛の郷公園入口(愛の杜経由・下り)",
        "標柱": "下り",
        "_markerType": "Icon",
        "_iconUrl": "https://maps.gsi.go.jp/portal/sys/v4/symbols/080.png",
        "_iconSize": [
          20,
          20
        ],
        "_iconAnchor": [
          10,
          10
        ]
      },
      "geometry": {
        "type": "Point",
        "coordinates": [
          140.85618495941162,
          38.15630460685053
        ]
      }
    },
    {
      "type": "Feature",
      "properties": {
        "name": "愛島郷二丁目(愛の杜経由・下り)",
        "標柱": "下り",
        "_markerType": "Icon",
        "_iconUrl": "https://maps.gsi.go.jp/portal/sys/v4/symbols/080.png",
        "_iconSize": [
          20,
          20
        ],
        "_iconAnchor": [
          10,
          10
        ]
      },
      "geometry": {
        "type": "Point",
        "coordinates": [
          140.854758,
          38.157722
        ]
      }
    },
    {
      "type": "Feature",
      "properties": {
        "name": "愛島郷二丁目(愛の杜経由・上り)",
        "標柱": "上り",
        "_markerType": "Icon",
        "_iconUrl": "https://maps.gsi.go.jp/portal/sys/v4/symbols/080.png",
        "_iconSize": [
          20,
          20
        ],
        "_iconAnchor": [
          10,
          10
        ]
      },
      "geometry": {
        "type": "Point",
        "coordinates": [
          140.854613,
          38.157692
        ]
      }
    },
    {
      "type": "Feature",
      "properties": {
        "name": "宮城県警察学校前(愛の杜経由・上り)",
        "標柱": "上り",
        "_markerType": "Icon",
        "_iconUrl": "https://maps.gsi.go.jp/portal/sys/v4/symbols/080.png",
        "_iconSize": [
          20,
          20
        ],
        "_iconAnchor": [
          10,
          10
        ]
      },
      "geometry": {
        "type": "Point",
        "coordinates": [
          140.855203,
          38.159591
        ]
      }
    },
    {
      "type": "Feature",
      "properties": {
        "name": "宮城県警察学校(愛の杜経由・下り)",
        "標柱": "下り",
        "_markerType": "Icon",
        "_iconUrl": "https://maps.gsi.go.jp/portal/sys/v4/symbols/080.png",
        "_iconSize": [
          20,
          20
        ],
        "_iconAnchor": [
          10,
          10
        ]
      },
      "geometry": {
        "type": "Point",
        "coordinates": [
          140.855305,
          38.159506
        ]
      }
    },
    {
      "type": "Feature",
      "properties": {
        "name": "ホームセンタームサシ北(愛の杜経由・上り)",
        "標柱": "上り",
        "_markerType": "Icon",
        "_iconUrl": "https://maps.gsi.go.jp/portal/sys/v4/symbols/080.png",
        "_iconSize": [
          20,
          20
        ],
        "_iconAnchor": [
          10,
          10
        ]
      },
      "geometry": {
        "type": "Point",
        "coordinates": [
          140.85792839527127,
          38.16159824767295
        ]
      }
    },
    {
      "type": "Feature",
      "properties": {
        "name": "ホームセンタームサシ北(愛の杜経由・下り)",
        "標柱": "下り",
        "_markerType": "Icon",
        "_iconUrl": "https://maps.gsi.go.jp/portal/sys/v4/symbols/080.png",
        "_iconSize": [
          20,
          20
        ],
        "_iconAnchor": [
          10,
          10
        ]
      },
      "geometry": {
        "type": "Point",
        "coordinates": [
          140.85777282714844,
          38.16155185089694
        ]
      }
    },
    {
      "type": "Feature",
      "properties": {
        "name": "ホームセンタームサシ(愛の杜経由・上り)",
        "標柱": "上り",
        "_markerType": "Icon",
        "_iconUrl": "https://maps.gsi.go.jp/portal/sys/v4/symbols/080.png",
        "_iconSize": [
          20,
          20
        ],
        "_iconAnchor": [
          10,
          10
        ]
      },
      "geometry": {
        "type": "Point",
        "coordinates": [
          140.858036,
          38.16094
        ]
      }
    },
    {
      "type": "Feature",
      "properties": {
        "name": "ホームセンタームサシ(愛の杜経由・下り)",
        "標柱": "下り",
        "_markerType": "Icon",
        "_iconUrl": "https://maps.gsi.go.jp/portal/sys/v4/symbols/080.png",
        "_iconSize": [
          20,
          20
        ],
        "_iconAnchor": [
          10,
          10
        ]
      },
      "geometry": {
        "type": "Point",
        "coordinates": [
          140.858132,
          38.160932
        ]
      }
    },
    {
      "type": "Feature",
      "properties": {
        "name": "愛島郷一丁目(愛の杜経由・下り)",
        "標柱": "下り",
        "_markerType": "Icon",
        "_iconUrl": "https://maps.gsi.go.jp/portal/sys/v4/symbols/080.png",
        "_iconSize": [
          20,
          20
        ],
        "_iconAnchor": [
          10,
          10
        ]
      },
      "geometry": {
        "type": "Point",
        "coordinates": [
          140.8591890335083,
          38.15994903505373
        ]
      }
    },
    {
      "type": "Feature",
      "properties": {
        "name": "愛島郷一丁目()愛の杜経由・上り",
        "標柱": "上り",
        "_markerType": "Icon",
        "_iconUrl": "https://maps.gsi.go.jp/portal/sys/v4/symbols/080.png",
        "_iconSize": [
          20,
          20
        ],
        "_iconAnchor": [
          10,
          10
        ]
      },
      "geometry": {
        "type": "Point",
        "coordinates": [
          140.8592963218689,
          38.15983936741871
        ]
      }
    },
    {
      "type": "Feature",
      "properties": {
        "name": "愛の杜(愛の杜経由・上り)",
        "標柱": "上り",
        "_markerType": "Icon",
        "_iconUrl": "https://maps.gsi.go.jp/portal/sys/v4/symbols/080.png",
        "_iconSize": [
          20,
          20
        ],
        "_iconAnchor": [
          10,
          10
        ]
      },
      "geometry": {
        "type": "Point",
        "coordinates": [
          140.863287,
          38.158827
        ]
      }
    },
    {
      "type": "Feature",
      "properties": {
        "name": "愛の杜(愛の杜経由・下り)",
        "標柱": "下り",
        "_markerType": "Icon",
        "_iconUrl": "https://maps.gsi.go.jp/portal/sys/v4/symbols/080.png",
        "_iconSize": "20,20",
        "_iconAnchor": "10,10"
      },
      "geometry": {
        "type": "Point",
        "coordinates": [
          140.863164,
          38.158747
        ]
      }
    },
    {
      "type": "Feature",
      "properties": {
        "marker-color": "",
        "marker-size": "",
        "marker-symbol": "",
        "name": "グリーンポート愛島(下)",
        "標柱": "下り",
        "_markerType": "Icon",
        "_iconUrl": "https://maps.gsi.go.jp/portal/sys/v4/symbols/080.png",
        "_iconSize": "20,20",
        "_iconAnchor": "10,10"
      },
      "geometry": {
        "type": "Point",
        "coordinates": [
          140.8188633620739,
          38.14559593625887
        ]
      }
    }
  ]
}